FID	No	Source	Id	river	station	country	x	y	area	altitude	d_start	d_end	orig_lat	orig_lon	areaold	area_1	lat	lon	newlat	newlon	newarea	lat_1min	lon_1min	area_1min	differentfromEFAS
0	1	DE	10062000	Danube	Schwabelweis	DE	0	0	35399	324.49	1991	2021	49.023585	12.13873	35440	0	49.025	12.14167	49.0229	12.1387	35338	49.025	12.1417	35440	0
1	2	DE	10088003	Danube	Hofkirchen	DE	0	0	47496	299.6	1990	2021	48.676627	13.115212	47586	0	48.675	13.10833	48.6763	13.1137	47488	48.675	13.1083	47586	0
2	95	SI	1060	Mur	Gornja_Radgona	SI	0	0	10197	202.34	1991	2021	46.6811	15.9956	10338	0	46.675	15.99167	46.6821	15.9954	10220	46.6917	15.975	10302	1
3	96	SI	2110	Draoe	Ptuj	SI	0	0	13664	214.62	2008	2021	46.4169	15.8675	13677	0	46.40833	15.875	46.4171	15.8679	13595	46.425	15.8583	13653	1
4	98	SI	3420	Saoe	Radooejica	SI	0	0	908	408.09	1991	2021	46.34	14.1654	891	0	46.34167	14.15833	46.3396	14.1662	900	46.3417	14.1583	891	0
5	99	SI	3530	Saoe	Medno	SI	0	0	2201	300.27	1991	2021	46.1225	14.4405	2182	0	46.125	14.44167	46.1229	14.4404	2162	46.125	14.4417	2182	0
6	101	SI	3725	Saoe	Hrastnik	SI	0	0	5177	193.85	1993	2021	46.122	15.0906	4531	0	46.125	15.075	46.1221	15.0904	5233	46.125	15.075	4531	0
7	102	SI	3900	Saoe	Jesenice_na_Dolenjskem	SI	0	0	10882	129.43	1991	2021	45.8605	15.6925	9910	0	45.85833	15.69167	45.8604	15.6929	10629	45.8583	15.6917	9910	0
8	103	SI	5078	Ljubljanica	Moste	SI	0	0	1762	281.29	1991	2021	46.0554	14.5444	1118	0	46.05833	14.54167	46.0554	14.5446	1826	46.0583	14.5417	1118	0
9	107	SI	7160	Krka	Podbofcje	SI	0	0	2238	146.32	1991	2021	45.8644	15.4555	1839	0	45.875	15.45833	45.8646	15.4562	1790	45.8583	15.4417	1757	1
10	155	AT	4001092	Ager	Fischerau_Ager	AT	0	0	1256	348	1990	2021	48.085815	13.838047	1235	0	48.09167	13.84167	48.0854	13.8379	1251	48.0917	13.8417	1235	0
11	156	AT	10001019	Danube	Achleiten_Donau	AT	0	0	76653	288.04	1991	2021	48.582691	13.503336	76652	0	48.59167	13.50833	48.5838	13.5029	76415	48.575	13.4917	76622	1
12	158	AT	10001016	Danube	Kienstock	AT	0	0	95970	194	1991	2021	48.382792	15.46122	95950	0	48.375	15.45833	48.3837	15.4612	95701	48.375	15.4583	95950	0
13	159	AT	10001035	Danube	Korneuburg	AT	0	0	101537	159.87	1996	2021	48.329485	16.332121	101531	0	48.325	16.325	48.3296	16.3304	101274	48.325	16.325	101531	0
14	160	AT	10001023	Danube	Linz	AT	0	0	79490	247.74	1990	2000	48.30692	14.284912	79484	0	48.30833	14.29167	48.3079	14.2846	79253	48.3083	14.2917	79484	0
15	161	AT	10001036	Danube	Wildungsmauer	AT	0	0	103993	139.48	1996	2021	48.114803	16.804302	104029	0	48.125	16.80833	48.1171	16.8046	103665	48.125	16.775	103877	1
16	163	AT	2001077	Draoe	Amlach	AT	0	0	4790	522.79	2008	2021	46.77402	13.52317	4795	0	46.775	13.525	46.7737	13.5229	4774	46.775	13.525	4795	0
17	164	AT	2001073	Draoe	Laoemuend_Ort	AT	0	0	11052	338	2008	2021	46.64062	14.942619	11063	0	46.65833	14.925	46.6396	14.9429	11008	46.6583	14.925	11063	0
18	166	AT	2001001	Draoe	Oberdrauburg-OWF	AT	0	0	2112	616.08	1990	2021	46.747615	12.97297	2113	0	46.74167	12.975	46.7479	12.9729	2105	46.7417	12.975	2113	0
19	168	AT	6001033	Enns	Admont__Enns	AT	0	0	2638	616.8	1991	2021	47.581186	14.461733	2651	0	47.575	14.45833	47.5812	14.4621	2626	47.575	14.4583	2651	0
20	169	AT	4001134	Enns	Steyr__Ortskai	AT	0	0	5915	283.97	1991	2021	48.043318	14.424931	5943	0	48.04167	14.425	48.0429	14.4246	5924	48.0417	14.425	5943	0
21	170	AT	6001025	Enns	Trautenfels	AT	0	0	1490	639.96	2010	2021	47.514579	14.08546	1520	0	47.50833	14.075	47.5138	14.0854	1513	47.5083	14.075	1520	0
22	173	AT	2001041	Gail	Federaun	AT	0	0	1305	498.54	1990	2021	46.569332	13.814816	1337	0	46.575	13.80833	46.5696	13.8146	1300	46.575	13.8083	1336	0
23	175	AT	2001062	Gurk	Gumisch	AT	0	0	2555	394.34	1990	2021	46.606288	14.478061	2326	0	46.60833	14.475	46.6063	14.4779	2317	46.6083	14.475	2325	0
24	176	AT	2001071	Gurk	Launsdorf	AT	0	0	1243	510	1990	2021	46.760439	14.476932	1004	0	46.75833	14.475	46.7604	14.4771	1013	46.7583	14.475	1004	0
25	179	AT	7001049	Inn	Innsbruck	AT	0	0	5772	568.46	1991	2021	47.275613	11.396506	5795	0	47.275	11.39167	47.2746	11.3963	5781	47.275	11.3917	5795	0
26	180	AT	7001062	Inn	Jenbach-Rotholz	AT	0	0	7231	521.67	1990	2021	47.388857	11.789238	7233	0	47.39167	11.79167	47.3888	11.7896	7206	47.3917	11.7917	7233	0
27	181	AT	7001015	Inn	Kajetansbruecke	AT	0	0	2162	967.16	1990	2021	46.951979	10.511638	2163	0	46.95833	10.50833	46.9521	10.5121	2148	46.9583	10.5083	2163	0
28	182	AT	7001081	Inn	Kirchbichl-Bichlwang	AT	0	0	9310	484	1990	2021	47.522774	12.093312	9305	0	47.525	12.09167	47.5229	12.0929	9281	47.525	12.0917	9305	0
29	183	AT	7001043	Inn	Magerbach	AT	0	0	5119	652.98	1990	2021	47.258747	10.874705	5091	0	47.25833	10.875	47.2587	10.8746	5087	47.2583	10.875	5091	0
30	184	AT	7001027	Inn	Perjen	AT	0	0	3503	768.73	2008	2021	47.146797	10.571568	3487	0	47.14167	10.575	47.1471	10.5721	3484	47.1417	10.575	3487	0
31	185	AT	7001017	Inn	Prutz	AT	0	0	2462	861.36	1990	2021	47.076753	10.660908	2452	0	47.075	10.65833	47.0771	10.6612	2449	47.075	10.6583	2451	0
32	187	AT	7001140	Isel	Lienz	AT	0	0	1199	669.29	1990	2021	46.831632	12.766335	1198	0	46.84167	12.75833	46.8312	12.7662	1196	46.8417	12.7583	1198	0
33	188	AT	3001039	Kamp	Stiefern	AT	0	0	1493	217	1990	2021	48.534688	15.690083	1493	0	48.54167	15.69167	48.5346	15.6904	1489	48.5417	15.6917	1493	0
34	189	AT	7001007	Lech	Lechaschau	AT	0	0	1012	836.09	1991	2021	47.497015	10.709677	1021	0	47.49167	10.70833	47.4971	10.7104	999	47.4917	10.7083	1021	0
35	190	AT	3001121	Leitha	Deutsch_Brodersdorf	AT	0	0	1620	193.04	1990	2010	47.937903	16.477205	1620	0	47.94167	16.475	47.9379	16.4771	1562	47.9417	16.475	1619	0
36	191	AT	3001122	Leitha	Deutsch_Haslau	AT	0	0	1982	139.19	1990	2021	48.04761	16.943102	1998	0	48.04167	16.94167	48.0471	16.9429	1943	48.0417	16.9417	1997	0
37	192	AT	2001020	Lieser	Spittal__Fasan	AT	0	0	1036	556.19	1990	2021	46.807338	13.494837	1044	0	46.80833	13.49167	46.8071	13.4962	1031	46.8083	13.4917	1044	0
38	195	AT	2001007	Moll	Kolbnitz	AT	0	0	1044	607	1990	2021	46.875108	13.302641	1053	0	46.875	13.30833	46.8746	13.3029	1044	46.875	13.3083	1053	0
39	197	AT	6001079	Mur	Bruck	AT	0	0	6214	468.14	1990	2021	47.409966	15.28143	6215	0	47.40833	15.275	47.4104	15.2812	6192	47.4083	15.275	6215	0
40	198	AT	6001059	Mur	Gestuethof	AT	0	0	1700	776.3	1990	2021	47.110664	14.209475	1718	0	47.10833	14.20833	47.1112	14.2096	1696	47.1083	14.2083	1718	0
41	200	AT	6001132	Mur	Mellach	AT	0	0	7296	290.8	2010	2021	46.902063	15.492877	7322	0	46.90833	15.49167	46.9021	15.4937	7280	46.9083	15.4917	7322	0
42	201	AT	6001099	Mur	Mureck	AT	0	0	9770	224.23	1990	2021	46.711443	15.792175	9777	0	46.70833	15.79167	46.7112	15.7929	9747	46.7083	15.7917	9777	0
43	202	AT	6001060	Mur	StGeorgen	AT	0	0	2368	700.15	1990	2021	47.211775	14.499123	2357	0	47.20833	14.49167	47.2121	14.4987	2341	47.2083	14.4917	2357	0
44	203	AT	6001063	Mur	Zeltweg	AT	0	0	2958	646.34	1990	2021	47.185059	14.752621	2995	0	47.19167	14.75833	47.1854	14.7529	2953	47.1917	14.7583	2995	0
45	207	AT	5001052	Saalach	Siezenheim	AT	0	0	1139	415.77	1990	2021	47.811555	12.974216	1133	0	47.80833	12.975	47.8121	12.9746	1137	47.8083	12.975	1133	0
46	208	AT	5001028	Saalach	Golling	AT	0	0	3556	463.19	1990	2021	47.595786	13.16345	3541	0	47.59167	13.15833	47.5954	13.1638	3541	47.5917	13.1583	3541	0
47	211	AT	5001085	Saalach	Wallnerau	AT	0	0	2143	597.9	2008	2021	47.310132	13.12021	2157	0	47.30833	13.125	47.3096	13.1204	2135	47.3083	13.1083	2145	1
48	212	AT	5001098	Saalach	Werfen	AT	0	0	2953	512.13	1995	2021	47.479884	13.191103	2963	0	47.475	13.19167	47.4804	13.1913	2951	47.475	13.1917	2962	0
49	213	AT	6001095	Sulm	Leibnitz	AT	0	0	1103	262.98	1990	2021	46.771039	15.534549	1113	0	46.775	15.54167	46.7721	15.5346	1104	46.775	15.5417	1113	0
50	214	AT	3001089	Thaya	Raabs_an_der_Thaya	AT	0	0	1406	395.44	1990	2021	48.844976	15.499183	1423	0	48.84167	15.49167	48.8446	15.4996	1399	48.8417	15.4917	1423	0
51	216	AT	4001181	Traun	Wels-Lichtenegg	AT	0	0	3387	309	2009	2021	48.141089	13.995787	3480	0	48.14167	13.99167	48.1404	13.9954	3383	48.125	13.975	3404	1
52	221	AT	3001008	Ybbs	Greimpersdorf	AT	0	0	1117	261.73	1990	2021	48.110874	14.891028	1124	0	48.10833	14.89167	48.1112	14.8912	1104	48.1083	14.8917	1124	0
53	223	AT	7001071	Ziller	Hart_im_Zillertal	AT	0	0	1095	530.95	1990	2021	47.346304	11.862502	1094	0	47.34167	11.85833	47.3471	11.8629	1090	47.3417	11.8583	1094	0
54	228	RS	42010	Danube	Bezdan	RS	0	0	210250	80.64	1991	2021	45.854141	18.859776	209319	0	45.875	18.825	45.8537	18.8562	209737	45.8583	18.8417	210491	1
55	231	RS	42660	Nera	Kusic	RS	0	0	1337	91	2008	2021	44.870834	21.485225	1350	0	44.875	21.49167	44.8713	21.4862	1343	44.875	21.4917	1350	0
56	232	RS	42929	Beli_Timok	Zajecar	RS	0	0	2150	124.41	2008	2021	43.892142	22.293443	2129	0	43.89167	22.29167	43.8921	22.2929	2147	43.8917	22.2917	2129	0
57	233	RS	42901	oeliki_Timok	Cokonjar	RS	0	0	3945	97.05	2006	2021	44.011722	22.355994	3962	0	44.00833	22.35833	44.0121	22.3562	3951	44.0083	22.3583	3962	0
58	234	RS	45084	Saoe	Jamena	RS	0	0	64073	72.44	2006	2021	44.877743	19.084006	61445	0	44.875	19.09167	44.8762	19.0854	68096	44.875	19.075	61308	1
59	235	RS	45090	Saoe	Sremaska_Mitrooeca	RS	0	0	87996	72.22	1991	2021	44.965672	19.60019	84873	0	44.975	19.59167	44.9654	19.6013	91749	44.975	19.5917	84873	0
60	236	RS	45882	Drina	Radalj	RS	0	0	17490	129.47	1991	2021	44.41907	19.14799	17740	0	44.425	19.14167	44.4188	19.1471	17515	44.4083	19.1417	17595	1
61	237	RS	45910	Kolubara	Beli_Brod	RS	0	0	1896	99.32	2008	2021	44.371198	20.199508	1830	0	44.375	20.19167	44.3713	20.1996	1831	44.375	20.1917	1830	0
62	238	RS	47010	oelika_Moraoe	oeroerin	RS	0	0	31548	126.13	2008	2021	43.724576	21.373063	31505	0	43.70833	21.39167	43.7246	21.3738	31633	43.725	21.375	31711	1
63	239	RS	47040	oelika_Moraoe	Bagrdan	RS	0	0	33446	100.94	2008	2021	44.070498	21.195798	33658	0	44.05833	21.20833	44.0712	21.1962	33577	44.0583	21.2083	33658	0
64	240	RS	47101	Zapadna_Moraoe	Kratooeka_stena	RS	0	0	3077	290.44	2008	2021	43.87126	20.118569	3090	0	43.875	20.125	43.8713	20.1187	3095	43.875	20.125	3090	0
65	241	RS	47120	Zapadna_Moraoe	Milocaj	RS	0	0	4658	194.27	2008	2021	43.775839	20.627096	4609	0	43.775	20.625	43.7762	20.6271	4599	43.775	20.625	4609	0
66	242	RS	47195	Zapadna_Moraoe	Jasika	RS	0	0	14721	138.56	1991	2021	43.608124	21.295077	14554	0	43.60833	21.29167	43.6088	21.2954	14529	43.6083	21.275	14524	1
67	243	RS	47528	Juzna_Moraoe	oeanjski_Priboj	RS	0	0	2775	349.98	2008	2021	42.600342	22.012318	2806	0	42.60833	22.00833	42.6004	22.0121	2780	42.6083	22.0083	2806	0
68	244	RS	47540	Juzna_Moraoe	Grdelica	RS	0	0	3782	251.63	1991	2021	42.890972	22.061887	3744	0	42.89167	22.05833	42.8904	22.0621	3727	42.8917	22.0583	3744	0
69	245	RS	47550	Juzna_Moraoe	Koroengrad	RS	0	0	9396	188.09	2008	2021	43.219521	21.838303	9516	0	43.225	21.84167	43.2196	21.8379	9486	43.225	21.8417	9516	0
70	246	RS	47590	Juzna_Moraoe	Mojsinje	RS	0	0	15390	136.28	1991	2021	43.63055	21.485787	15657	0	43.625	21.49167	43.6296	21.4854	15620	43.625	21.4917	15657	0
71	247	RS	47890	Toplica	Doljeoec	RS	0	0	2052	190.41	2008	2021	43.20241	21.830671	2206	0	43.20833	21.825	43.2021	21.8304	2061	43.1917	21.825	2055	1
72	248	RS	47920	Nisaoe	Pirot	RS	0	0	1745	364.27	2008	2021	43.159234	22.588755	1794	0	43.14167	22.60833	43.1587	22.5887	1815	43.1417	22.6083	1794	0
73	249	RS	47990	Nisaoe	Nis	RS	0	0	3870	187.88	1991	2021	43.326211	21.90196	4018	0	43.325	21.90833	43.3263	21.9021	3994	43.325	21.9417	3977	1
74	257	RS	47295	Ibar	Lopatnica_lakat	RS	0	0	7818	224.68	1991	2021	43.659922	20.563451	7716	0	43.65833	20.55833	43.6596	20.5637	7700	43.6583	20.5583	7716	0
75	258	RS	42921	Beli_Timok	Knjazeoec	RS	0	0	1242	211.63	2008	2021	43.576355	22.259299	1237	0	43.575	22.25833	43.5763	22.2596	1257	43.575	22.2583	1236	0
76	261	RS	42020	Danube	Bogojeoe	RS	0	0	251593	77.46	1991	2021	45.53004	19.078749	252207	0	45.525	19.075	45.5279	19.0779	253996	45.525	19.075	252207	0
77	263	RS	42480	Brzaoe	Markooeceoe	RS	0	0	1111	76.9	2008	2021	45.326954	21.03038	1217	0	45.325	21.025	45.3263	21.0304	949	45.325	21.0417	953	1
78	264	RS	47090	oelika_Moraoe	Ljubiceoeki_most	RS	0	0	37320	73.42	1991	2021	44.585387	21.131837	37277	0	44.59167	21.125	44.5846	21.1321	37147	44.5917	21.125	37277	0
79	272	SK	5040	Moraoe	Moraoekoe	SK	0	0	24129	146.24	1991	2021	48.602278	16.935429	24137	0	48.60833	16.94167	48.6021	16.9354	23997	48.6083	16.9417	24136	0
80	273	SK	5127	Danube	Deoecn	SK	0	0	131244	132.87	2002	2021	48.173299	16.977317	131325	0	48.175	16.975	48.1721	16.9763	131005	48.175	16.975	131325	0
81	274	SK	5550	oeh	Liptooekoe_Mikulv	SK	0	0	1107	567.68	1991	2021	49.086364	19.603513	1131	0	49.09167	19.60833	49.0862	19.6029	1100	49.0917	19.6083	1131	0
82	277	SK	6146	oeh	Strefcno	SK	0	0	5453	353.4	1996	2021	49.172511	18.864047	5476	0	49.175	18.85833	49.1737	18.8637	5425	49.175	18.8583	5476	0
83	278	SK	6480	oeh	Tafaea	SK	0	0	11218	109.23	1991	2021	48.161217	17.881949	10808	0	48.15833	17.875	48.1596	17.8821	10435	48.1583	17.875	10808	0
84	279	SK	6730	Nitra	Nitrianska_Streda	SK	0	0	2094	158.25	1991	2021	48.523948	18.172555	2129	0	48.525	18.175	48.5246	18.1721	2079	48.525	18.175	2129	0
85	280	SK	6772	Nitra	Nooeo_Zuemky	SK	0	0	4064	108.73	1991	2021	47.978552	18.174321	3157	0	47.975	18.175	47.9796	18.1729	3106	47.975	18.175	3157	0
86	281	SK	6849	Danube	Komoerno	SK	0	0	151962	103.4	1995	2021	47.754313	18.127812	151484	0	47.75833	18.125	47.7504	18.1279	151083	47.7583	18.125	151483	0
87	282	SK	7160	Hron	Banskoe_Bystrica	SK	0	0	1766	334.29	1991	2021	48.731088	19.140372	1858	0	48.725	19.14167	48.7313	19.1404	1758	48.725	19.1417	1858	0
88	283	SK	7290	Hron	Brehy	SK	0	0	3821	194.27	1991	2021	48.406726	18.64624	3901	0	48.40833	18.64167	48.4071	18.6463	3860	48.4083	18.6417	3901	0
89	284	SK	7540	Ipel	Slooenskoe_fearmoty	SK	0	0	2768	136.11	1991	2021	48.087161	19.297626	2763	0	48.09167	19.29167	48.0871	19.2979	2748	48.0917	19.325	2749	1
90	285	SK	7820	Slana	Lenoetooee	SK	0	0	1830	150.41	1991	2021	48.30507	20.313416	1769	0	48.30833	20.30833	48.3054	20.3146	1793	48.3083	20.3083	1769	0
91	286	SK	7900	Rimaoe	oekyaa	SK	0	0	1377	150.63	1991	2021	48.285404	20.301721	1371	0	48.29167	20.30833	48.2854	20.3029	1375	48.2917	20.3083	1371	0
92	288	SK	8510	Hornad	Margecany	SK	0	0	1133	329.35	1991	2021	48.909548	20.972338	1113	0	48.90833	20.975	48.9096	20.9721	1124	48.9083	20.975	1113	0
93	289	SK	8870	Torysa	Koickoeny	SK	0	0	1298	185.7	1991	2021	48.733426	21.336383	1291	0	48.725	21.34167	48.7329	21.3362	1297	48.725	21.3417	1291	0
94	290	SK	9230	Laborec	Humennv	SK	0	0	1272	143.6	1991	2021	48.928054	21.912382	1273	0	48.925	21.90833	48.9279	21.9121	1269	48.925	21.9083	1273	0
95	291	SK	9320	Uzh	Lekoeooee	SK	0	0	1989	98.92	1991	2021	48.605475	22.156619	2008	0	48.60833	22.15833	48.6054	22.1562	1991	48.6083	22.1583	2008	0
96	292	SK	9410	Latorica	oefækoeKapuany	SK	0	0	2915	93.7	1991	2021	48.500766	22.051758	3814	0	48.49167	22.05833	48.5004	22.0521	3425	48.4917	22.075	3809	1
97	293	SK	9500	Topla	Hanuooee_nad_Toplou	SK	0	0	1050	160.4	1991	2021	49.032598	21.519206	1080	0	49.025	21.525	49.0329	21.5196	1056	49.025	21.525	1080	0
98	294	SK	9670	Bodrog	Streda_nad_Bodrogom	SK	0	0	11474	91.48	1991	2021	48.395088	21.748243	12092	0	48.39167	21.74167	48.3954	21.7479	11931	48.3917	21.7417	12092	0
99	327	RS	42527	Mlaoe	oeliko_Selo	RS	0	0	1124	92.55	2008	2021	44.49455	21.299877	1296	0	44.49167	21.30833	44.4946	21.3004	1276	44.4917	21.3083	1296	0
100	457	DE	16606009	Amper	Ampermoching	DE	0	0	2189	464.07	1990	2021	48.297	11.4916	2238	0	48.29167	11.49167	48.2971	11.4912	2311	48.3083	11.5083	2422	1
101	458	DE	12407000	Wertach	Augsburg_Oberhausen	DE	0	0	1257	464.09	1999	2021	48.378353	10.881891	1256	0	48.375	10.875	48.3788	10.8821	1240	48.375	10.875	1256	0
102	460	DE	13407902	Altmuhl	Beilngries	DE	0	0	2251	362.66	1990	2021	49.0285	11.4783	2267	0	49.025	11.45833	49.0279	11.4779	2450	49.025	11.475	2465	1
103	461	DE	18606000	Salzach	Burghausen	DE	0	0	6649	351.62	1990	2021	48.1585	12.8341	6659	0	48.15833	12.84167	48.1587	12.8346	6647	48.1583	12.8417	6659	0
104	462	DE	15202300	Regen	Chamerau	DE	0	0	1357	371.28	1990	2021	49.181157	12.746633	1366	0	49.175	12.75833	49.1821	12.7462	1353	49.175	12.7583	1366	0
105	463	DE	10035801	Danube	Dillingen	DE	0	0	11350	415	1990	2021	48.5684	10.5005	11740	0	48.575	10.50833	48.5679	10.5004	11331	48.5583	10.475	11340	1
106	464	DE	10039802	Danube	Donauwoerth	DE	0	0	15092	394.78	1990	2021	48.7107	10.8014	15092	0	48.70833	10.80833	48.7104	10.8012	15075	48.7083	10.8083	15092	0
107	465	DE	13407200	Altmuhl	Eichstaett	DE	0	0	1397	382.19	1990	2021	48.883072	11.200333	1404	0	48.875	11.20833	48.8829	11.2004	1393	48.875	11.2083	1404	0
108	466	DE	16605006	Amper	Fuerstenfeldbruck	DE	0	0	1230	514.23	1990	2021	48.177101	11.261473	1272	0	48.175	11.25833	48.1771	11.2613	1237	48.175	11.2583	1272	0
109	467	DE	11809009	Wornitz	Harburg	DE	0	0	1569	400.65	1990	2021	48.783017	10.692216	1573	0	48.79167	10.69167	48.7829	10.6929	1566	48.7917	10.6917	1573	0
110	469	DE	10046105	Danube	Ingolstadt_Luitpoldstrasse	DE	0	0	20001	360.35	1990	2021	48.7574	11.426	20026	0	48.74167	11.39167	48.7571	11.4254	20178	48.7583	11.425	20234	1
111	470	DE	16607001	Amper	Inkofen	DE	0	0	3076	415.58	1990	2021	48.4607	11.8652	3207	0	48.45833	11.85833	48.4604	11.8654	3158	48.4583	11.8583	3207	0
112	471	DE	10053009	Danube	Kelheim	DE	0	0	23019	337.1	1990	2021	48.9166	11.8643	23009	0	48.90833	11.85833	48.9162	11.8646	22942	48.9083	11.8583	23009	0
113	473	DE	15205501	Regen	Kienhof	DE	0	0	2174	354.12	1990	2021	49.1903	12.4951	2178	0	49.19167	12.49167	49.1904	12.4954	2172	49.1917	12.4917	2178	0
114	474	DE	16008007	Isar	Landau	DE	0	0	8392	333.65	1990	2021	48.675294	12.692566	8618	0	48.675	12.69167	48.6754	12.6929	8623	48.675	12.6917	8618	0
115	475	DE	18602009	Salzach	Laufen_Siegerstetter_Keller	DE	0	0	6112	387.05	1990	2021	47.9397	12.933	6126	0	47.94167	12.94167	47.9396	12.9329	6104	47.9417	12.925	6128	1
116	477	DE	14006000	Naab	Muenchshofen	DE	0	0	4008	344.01	1990	2021	49.234	12.084	4014	0	49.24167	12.09167	49.2338	12.0829	3993	49.2417	12.0917	4014	0
117	479	DE	10026301	Danube	Neu_Ulm_Bad_Held	DE	0	0	7588	464.92	1990	2021	48.3892	9.9867	7587	0	48.375	9.975	48.3896	9.9871	7605	48.375	9.975	7587	0
118	483	DE	16008506	Isar	Plattling	DE	0	0	8435	316.31	1990	2021	48.771	12.8835	8948	0	48.775	12.89167	48.7696	12.8854	8820	48.7417	12.8583	8793	1
119	487	DE	18403002	Alz	Seebruck	DE	0	0	1399	517.34	1990	2021	47.934545	12.480662	1476	0	47.94167	12.475	47.9346	12.4796	1449	47.9417	12.475	1476	0
120	488	DE	14002305	Naab	Unterkoeblitz	DE	0	0	2010	369.63	1990	2021	49.5356	12.154	2010	0	49.54167	12.15833	49.5363	12.1537	2003	49.5417	12.1583	2010	0
121	489	DE	18003004	Inn	Wasserburg	DE	0	0	11980	420.45	1990	2021	48.0593	12.2343	11970	0	48.075	12.225	48.0596	12.2346	11920	48.075	12.225	11970	0
122	574	CZ	367000	Moraoe	Olomouc	CZ	0	0	3324	204.63	1991	2021	49.576874	17.26133	3324	0	49.575	17.25833	49.5779	17.2613	3330	49.575	17.2583	3324	0
123	575	CZ	390000	Becoe	Dluhonice	CZ	0	0	1593	199.71	1991	2010	49.449116	17.408543	1591	0	49.44167	17.40833	49.4488	17.4087	1587	49.4417	17.4083	1591	0
124	576	CZ	403000	Moraoe	Kromeriz	CZ	0	0	7030	183.17	1991	2021	49.301911	17.39939	6997	0	49.30833	17.39167	49.3021	17.3996	7002	49.3083	17.3917	6997	0
125	577	CZ	421500	Moraoe	Straznice	CZ	0	0	9145	163.28	1991	2021	48.933061	17.298601	9139	0	48.925	17.29167	48.9329	17.2979	9091	48.9417	17.325	9048	1
126	578	CZ	437000	Thaya	Traoei_Doer	CZ	0	0	3531	172.64	1991	2021	48.790547	16.437896	3633	0	48.79167	16.44167	48.7904	16.4379	3528	48.775	16.425	3594	1
127	579	CZ	462000	Soeatka	Zidlochooece	CZ	0	0	3940	177.89	1991	2021	49.035525	16.616741	3958	0	49.04167	16.60833	49.0346	16.6171	3921	49.0417	16.6083	3958	0
128	580	CZ	478000	Jihlaoe	Ioencice	CZ	0	0	2682	194.01	1991	2021	49.083013	16.411488	2678	0	49.075	16.40833	49.0829	16.4112	2672	49.075	16.4083	2678	0
129	581	CZ	480500	Thaya	BreclaoeLadna	CZ	0	0	12280	157.38	1991	2021	48.79945	16.858672	12365	0	48.79167	16.85833	48.7979	16.8588	12281	48.7917	16.8583	12365	0
130	582	BG	16850	Ogosta	Miziya	BG	0	0	3112	26.32	1991	2021	43.6919	23.8258	3180	0	43.69167	23.825	43.6921	23.8262	3139	43.6917	23.825	3180	0
131	583	BG	18700	Iskar	Nooe_Iskar	BG	0	0	3662	502.63	2015	2021	42.8292	23.3598	3525	0	42.825	23.35833	42.8296	23.3596	3552	42.8417	23.3583	3555	1
132	584	BG	18850	Iskar	Orehooeca	BG	0	0	8366	31.2	1991	2021	43.5878	24.3589	8324	0	43.59167	24.35833	43.5879	24.3588	8355	43.5917	24.3583	8324	0
133	585	BG	21800	oet	Tarnene	BG	0	0	2236	58.24	1991	2021	43.4056	24.5192	2364	0	43.39167	24.50833	43.4062	24.5196	2202	43.3917	24.5083	2364	0
134	586	BG	22700	Osam	Troian	BG	0	0	458	353.1	1991	2021	42.9172	24.7097	482	0	42.925	24.70833	42.9171	24.7096	464	42.9083	24.7083	477	1
135	587	BG	22800	Osam	Izgrev	BG	0	0	2154	40.32	1991	2021	43.4555	25.0528	2185	0	43.45833	25.05833	43.4554	25.0529	2170	43.4583	25.0583	2185	0
136	588	BG	23500	Rositsa	Seoeieoe	BG	0	0	958	196.24	1991	2021	42.9958	25.1086	998	0	42.99167	25.10833	42.9954	25.1079	1002	42.9917	25.1083	998	0
137	589	BG	23850	Yantra	Karantsi	BG	0	0	6860	30.9	1991	2021	43.3803	25.6672	6871	0	43.375	25.675	43.3804	25.6679	6862	43.375	25.675	6871	0
138	590	BG	23400	Dzhulunitsa	Dzhuliunitsa	BG	0	0	882	62.02	1991	2021	43.133	25.9059	902	0	43.125	25.90833	43.1329	25.9054	884	43.125	25.9083	902	0
139	591	BG	31550	Cherni_Lom	Shirocooe	BG	0	0	1383	92.81	2015	2021	43.5529	25.9458	1411	0	43.55833	25.94167	43.5529	25.9454	1394	43.5583	25.9417	1411	0
140	657	HU	444507	Kraszna	Agerdomajor	HU	0	0	1974	-	1991	2021	47.763	22.4201	1964	0	47.75833	22.425	47.7629	22.4204	1968	47.775	22.4083	2121	1
141	660	HU	444361	Koros	Bekes	HU	0	0	9011	-	2015	2021	46.7856	21.1419	10759	0	46.8596	21.0936	46.7854	21.1421	11387	46.7583	21.175	9141	1
142	663	HU	444382	Barcau	Berettyoujfalu	HU	0	0	3712	-	2015	2021	47.2077	21.5394	3746	0	47.20833	21.54167	47.2079	21.5388	3681	47.2083	21.5417	3746	0
143	664	HU	442027	Danube	Budapest	HU	0	0	184893	-	2015	2021	47.4949	19.0483	184824	0	47.49167	19.04167	47.4929	19.0471	184226	47.4917	19.0417	184824	0
144	665	HU	444244	Somea	Csenger	HU	0	0	15283	-	1994	2021	47.841	22.6924	15326	0	47.84167	22.69167	47.8404	22.6929	15352	47.8417	22.6917	15326	0
145	667	HU	442540	Danube	Dombori-puszta	HU	0	0	189538	-	2015	2021	46.4227	18.8957	188655	0	46.425	18.89167	46.4204	18.8971	187902	46.425	18.8917	188655	0
146	670	HU	444282	Bodrog	Felsoberecki	HU	0	0	12886	-	2015	2021	48.3566	21.692	12853	0	48.35833	21.69167	48.3563	21.6921	12509	48.3583	21.6917	12853	0
147	671	HU	444371	Harmas-Koros	Gyoma	HU	0	0	19715	-	2015	2021	46.9449	20.8443	14980	0	46.94167	20.84167	46.9446	20.8454	19842	46.9417	20.8417	14980	0
148	674	HU	444543	Zagyoe	Hatoen	HU	0	0	1222	-	2015	2021	47.662	19.6826	1221	0	47.65833	19.69167	47.6613	19.6829	1203	47.675	19.675	1212	1
149	675	HU	444322	Hornad	Hidasnemeti	HU	0	0	4515	-	2015	2021	48.4975	21.2285	4497	0	48.49167	21.225	48.4971	21.2287	4464	48.5083	21.2417	4476	1
150	676	HU	442626	Dobroda	Ipolytarnoc	HU	0	0	1123	-	2015	2021	48.2362	19.606	1206	0	48.24167	19.60833	48.2362	19.6062	1126	48.2417	19.625	1128	1
151	677	HU	444548	Zagyoe	Jasztelek	HU	0	0	4207	-	1991	2021	47.4838	19.9938	3974	0	47.49167	19.99167	47.4838	19.9946	4088	47.475	20.0083	4118	1
152	678	HU	444537	Tisza	Kiskore_also	HU	0	0	65670	-	2015	2021	47.4927	20.5165	65452	0	47.50833	20.54167	47.5029	20.5179	65239	47.5083	20.5417	65452	0
153	682	HU	444333	Crioul_Repede	Korosszakal	HU	0	0	2489	-	2015	2021	47.0116	21.6081	2836	0	47.00833	21.60833	46.9554	21.6596	2688	47.00833	21.60833	2836	0
154	684	HU	444372	Harmas-Koros	Kunszentmarton	HU	0	0	27354	-	2015	2021	46.8481	20.2725	28339	0	46.84167	20.275	46.8479	20.2729	26799	46.875	20.2917	28306	1
155	686	HU	444396	Mures	Mako	HU	0	0	30149	-	1991	2021	46.2026	20.4556	29497	0	46.20833	20.45833	46.2021	20.4554	29880	46.2083	20.4583	29497	0
156	690	HU	442525	Ipel	Nogradszakal	HU	0	0	1850	-	2015	2021	48.191	19.5296	1843	0	48.19167	19.525	48.1913	19.5296	1831	48.2083	19.525	1831	1
157	693	HU	444563	Barcau	Pocsaj	HU	0	0	3502	-	2015	2021	47.2784	21.7975	3451	0	47.275	21.79167	47.2779	21.7979	3541	47.275	21.7917	3451	0
158	696	HU	442512	Raba	Saroer	HU	0	0	5566	0	2015	2021	47.2467	16.9538	5548	0	47.24167	16.95833	47.2471	16.9546	5537	47.2417	16.9583	5548	0
159	697	HU	442634	Sio	Siojut	HU	0	0	5884	0	2017	2021	46.8826	18.1404	5781	0	46.875	18.14167	46.8829	18.1404	5747	46.875	18.1417	5781	0
160	699	HU	442131	Raba	Szentgotthard	HU	0	0	3084	0	1991	2021	46.9573	16.2759	3075	0	46.95833	16.275	46.9704	16.2762	3089	46.9583	16.275	3075	0
161	700	HU	444229	Tisza	Szolnok	HU	0	0	73113	0	1991	2021	47.1695	20.1888	72994	0	47.175	20.19167	47.1688	20.1887	72673	47.175	20.1917	72994	0
162	701	HU	444226	Tisza	Tiszabecs	HU	0	0	9707	0	2015	2021	48.1034	22.8288	9219	0	48.10833	22.825	48.1037	22.8296	9196	48.1083	22.825	9219	0
163	703	HU	444530	Tisza	Tiszapalkonya	HU	0	0	62730	0	1991	2021	47.8934	21.0582	62479	0	47.89167	21.05833	47.8937	21.0587	62305	47.9083	21.0583	62460	1
164	706	HU	444227	Tisza	oesarosnameny	HU	0	0	29057	0	2015	2021	48.1268	22.3394	28538	0	48.125	22.34167	48.1271	22.3388	28341	48.125	22.3417	28538	0
165	707	HU	444510	Tisza	Zahony	HU	0	0	32782	0	2015	2021	48.4131	22.1728	32482	0	48.40833	22.175	48.4138	22.1729	32572	48.4083	22.175	32482	0
166	713	HU	444666	Barcau	Agota	HU	0	0	3134	0	2015	2021	47.3779	21.0221	2528	0	47.375	21.025	47.3779	21.0229	3316	47.3917	21.0417	2332	1
167	715	HU	442601	Mosoni-Duna	Bacsa	HU	0	0	17732	0	2015	2020	47.7251	17.6763	17859	0	47.725	17.675	47.7246	17.6762	17644	47.725	17.675	17859	0
168	775	RO	44119	oeseu	Bistra	RO	0	0	1547	1020	1991	2021	47.863	24.1931	1565	0	47.85833	24.19167	47.8629	24.1929	1542	47.8583	24.1917	1565	0
169	777	RO	44210	Somesul_Mare	Beclean	RO	0	0	4347	711	2000	2021	47.177167	24.151194	4347	0	47.175	24.15833	47.1779	24.1513	4333	47.175	24.1583	4347	0
170	778	RO	44459	Crisul_Negru	Zerind	RO	0	0	3702	351	1991	2021	46.627167	21.515611	4060	0	46.625	21.525	46.6271	21.5162	3992	46.625	21.525	4060	0
171	779	RO	44409	Crisul_Alb	Chisineu_Cris	RO	0	0	3586	351	2000	2021	46.519528	21.509667	3586	0	46.525	21.50833	46.5196	21.5104	3942	46.525	21.5083	3586	0
172	780	RO	44580	Barcau	Salard	RO	0	0	1691	254	2000	2021	47.231528	22.028167	1691	0	47.225	22.025	47.2313	22.0279	1604	47.225	22.025	1691	0
173	781	RO	44610	Mures	Ocna_Mures	RO	0	0	9935	703	1991	2021	46.395333	23.852694	9935	0	46.39167	23.85833	46.3954	23.8521	9902	46.3917	23.8917	9901	1
174	782	RO	44612	Mures	Alba_Iulia	RO	0	0	18055	625	1991	2021	46.036056	23.581361	18027	0	46.04167	23.575	46.0379	23.5812	17961	46.0417	23.5917	18012	1
175	784	RO	44681	Aries	Turda	RO	0	0	2367	897	1991	2021	46.566278	23.784444	2367	0	46.55833	23.775	46.5662	23.7846	2369	46.5583	23.775	2367	0
176	785	RO	44720	Tarnaoe_Mare	Mihalt	RO	0	0	6254	532	2000	2021	46.171611	23.730167	6254	0	46.175	23.74167	46.1721	23.7296	6215	46.175	23.725	6258	1
177	786	RO	42119	Timis	Sag	RO	0	0	4493	477	1991	2021	45.6462	21.1781	4408	0	45.64167	21.175	45.6463	21.1779	4383	45.6417	21.175	4408	0
178	787	RO	42231	Jiu	Podari	RO	0	0	9334	446	1991	2021	44.260139	23.78675	9294	0	44.25833	23.79167	44.2587	23.7863	9280	44.2583	23.775	9259	1
179	788	RO	42450	Oltet	Bals	RO	0	0	2110	414	2000	2021	44.348333	24.098889	2110	0	44.34167	24.10833	44.3479	24.0979	2093	44.3583	24.1083	2105	1
180	789	RO	42471	oedea	Alexandria	RO	0	0	3295	195	2000	2021	43.986778	25.318806	3295	0	43.99167	25.325	43.9871	25.3187	3276	43.9917	25.325	3295	0
181	790	RO	42557	Neajlov	Calugareni	RO	0	0	1864	130	2000	2021	44.171167	25.996917	1864	0	44.15833	25.99167	44.17	25.997	3512	44.175	26.0083	3532	1
182	791	RO	42630	Prahooe	Adancata	RO	0	0	3710	549	2000	2021	44.755833	26.460583	3710	0	44.75833	26.45833	44.7554	26.4604	3675	44.7583	26.4583	3710	0
183	792	RO	42718	Suceaoe	Itcani	RO	0	0	2341	629	2000	2021	47.672778	26.234639	2341	0	47.675	26.225	47.6729	26.2346	2350	47.675	26.225	2341	0
184	793	RO	42839	Trotus	oeanceni	RO	0	0	4087	734	2000	2021	46.209667	26.89525	4087	0	46.20833	26.89167	46.2088	26.8954	4071	46.2083	26.8917	4087	0
185	794	RO	42873	Putna	Botarlau	RO	0	0	2543	554	2000	2021	45.632194	27.386417	2543	0	45.625	27.39167	45.6329	27.3871	2491	45.625	27.3917	2543	0
186	795	RO	42911	Barlad	Tecuci	RO	0	0	177	220	2000	2021	45.8446	27.4403	177	0	45.84167	27.44167	45.8346	27.4429	174	45.8417	27.4417	177	0
187	796	RO	42708	Siret	Dragesti	RO	0	0	11899	525	1991	2021	46.723639	26.945444	11849	0	46.725	26.94167	46.7246	26.9454	11986	46.6917	26.9417	12104	1
188	797	RO	42945	Prut	Radauti	RO	0	0	9074	529	1991	2021	48.238806	26.824	9309	0	48.24167	26.825	48.2413	26.8271	9280	48.2417	26.825	9309	0
189	798	RO	42001	Danube	Bazias	RO	0	0	570896	-999	1991	2021	44.8087	21.3901	562383	0	44.80833	21.39167	44.8079	21.3846	567951	44.8083	21.3917	562383	0
190	799	RO	42309	Olt	Hoghiz	RO	0	0	7225	797	2000	2021	45.991889	25.301083	7158	0	45.99167	25.30833	45.9921	25.3004	7153	45.9917	25.3083	7158	0
191	800	RO	44405	Crisul_Alb	Gurahont	RO	0	0	1608	515	2000	2021	46.277722	22.34225	1608	0	46.275	22.35833	46.2779	22.3413	1585	46.275	22.3583	1608	0
192	801	RO	42153	Barzaoe	Gataia	RO	0	0	719	359	2000	2021	45.439	21.4342	719	0	45.44167	21.44167	45.4387	21.4346	695	45.4417	21.4417	719	0
193	802	RO	42109	Timis	Lugoj	RO	0	0	2707	666	2000	2021	45.6837	21.9073	2707	0	45.675	21.90833	45.6829	21.9071	2786	45.675	21.9083	2707	0
194	803	RO	42741	Moldooe	Tupilati	RO	0	0	3940	703	2000	2021	47.084639	26.648111	3940	0	47.09167	26.65833	47.0854	26.6479	3948	47.0917	26.6417	3935	1
195	804	RO	42780	Bistrita	Frumosu	RO	0	0	2866	1172	2000	2021	47.142472	25.861917	2866	0	47.14167	25.85833	47.1421	25.8621	2847	47.1417	25.8583	2866	0
196	805	RO	42057	Ialomita	Ceatal_Izmail	RO	0	0	807000	-999	1990	2009	45.180222	28.8	785915	0	45.24167	28.75833	45.2379	28.7846	790789	45.2417	28.7917	785922	1
197	807	RO	42025	Danube	Zimnicea	RO	0	0	658400	-999	1990	2011	43.630194	25.357306	642273	0	43.625	25.35833	43.6262	25.3554	647711	43.625	25.3583	642273	0
198	808	RO	42714	Siret	Lungoci	RO	0	0	36030	-999	1990	2011	45.556611	27.509972	36425	0	45.55833	27.50833	45.5579	27.5104	36210	45.575	27.5083	36413	1
199	809	RO	42612	Ialomita	Cosereni	RO	0	0	6265	-999	1990	2011	44.696972	26.571694	6251	0	44.69167	26.575	44.6962	26.5721	6375	44.6917	26.575	6251	0
200	811	RO	42318	Olt	Cornet	RO	0	0	13733	-999	1990	2011	45.385111	24.297222	13868	0	45.39167	24.30833	45.3846	24.2979	13845	45.3917	24.3083	13868	0
201	817	HU	442132	Raba	Kormend	HU	0	0	4734	184.15	2015	2021	47.0064	16.6106	4723	0	47.00833	16.60833	47.0063	16.6104	4694	47.0083	16.6083	4723	0
202	818	HU	444567	Crisul_Repede	Korosladany_hid	HU	0	0	8985	80.98	2015	2021	46.953	21.0822	3777	0	46.95833	21.075	46.953	21.082	3776	46.9583	21.075	3777	0
203	822	RS	44201	Stari_Begej	Hetin	RS	0	0	2271	76.69	1991	2021	45.652777	20.798278	1825	0	45.65833	20.80833	45.6521	20.7979	1843	45.675	20.825	1806	1
204	823	RS	42914	Crni_Timok	Gamzigrad	RS	0	0	1213	152.2	1991	2020	43.924319	22.173151	1172	0	43.925	22.175	43.9237	22.1729	1169	43.925	22.175	1172	0
205	831	RS	45837	Lim	Prijepolje	RS	0	0	3160	443.37	1991	2021	43.381888	19.637294	3186	0	43.39167	19.64167	43.3821	19.6379	3041	43.375	19.625	3028	1
206	832	RS	47260	Ibar	Raska	RS	0	0	6270	392.54	1991	2021	43.296433	20.613816	6145	0	43.29167	20.60833	43.2963	20.6137	6154	43.2917	20.6083	6145	0
207	836	HR	4031	Kupa	Ladesic_Draga	HR	0	0	1445	147.84	2009	2021	45.479444	15.367278	1405	0	45.475	15.375	45.4796	15.3671	1506	45.475	15.375	1405	0
208	839	HR	4107	Kupa	Jamnicka_Kiselica	HR	0	0	6895	100.79	1991	2021	45.548611	15.8575	6323	0	45.54167	15.85833	45.548	15.8575	11015	45.5417	15.875	6366	1
209	840	HR	4065	Kupa	Sisinec	HR	0	0	7364	94.81	2009	2021	45.4485	16.077194	6825	0	45.44167	16.075	45.4479	16.0763	11484	45.4417	16.075	6825	0
210	841	HR	4010	Kupa	Farkasic	HR	0	0	8992	93.82	2000	2021	45.483278	16.152694	8420	0	45.475	16.15833	45.4829	16.1529	13100	45.475	16.1583	8420	0
211	842	HR	3217	Una	Kostajnica	HR	0	0	8876	103.2	2009	2021	45.222389	16.548722	7693	0	45.225	16.54167	45.2221	16.5487	9151	45.225	16.5417	7693	0
212	845	HR	3121	Saoe	Zagreb	HR	0	0	12450	112.26	1991	2021	45.7845	15.953306	11573	0	45.79167	15.95833	45.7837	15.9529	12228	45.7917	15.9583	11573	0
213	850	HR	3219	Saoe	Jasenooec	HR	0	0	38953	86.82	1991	2021	45.266806	16.907472	28719	0	45.275	16.90833	45.2662	16.9079	33715	45.275	16.8917	28712	1
214	851	HR	3104	Saoe	Stara_Gradiska	HR	0	0	40262	85.47	2009	2021	45.15025	17.249944	37895	0	45.14167	17.24167	45.1487	17.2504	44739	45.1583	17.2583	37951	1
215	852	HR	3179	Saoe	Daoer	HR	0	0	47179	82.59	1991	2021	45.128028	17.539556	44236	0	45.125	17.54167	45.1262	17.5404	50955	45.125	17.5417	44236	0
216	853	HR	3177	Saoe	Slaoenski_Kobas	HR	0	0	48744	82.69	2009	2021	45.098861	17.737833	45840	0	45.09167	17.74167	45.0979	17.7371	52604	45.0917	17.7417	45840	0
217	854	HR	3098	Saoe	Slaoenski_Brod	HR	0	0	50858	81.8	1991	2021	45.152944	18.004778	47764	0	45.15833	18.00833	45.1521	18.0046	54457	45.1583	18.0083	47764	0
218	856	HR	3211	Saoe	Zupanja_Stepenica	HR	0	0	62891	76.28	1991	2021	45.073472	18.686667	59242	0	45.075	18.69167	45.0746	18.6863	66166	45.075	18.6917	59242	0
219	857	HR	5115	Draoe	Donja_Dubraoe	HR	0	0	16770	129.7	2009	2021	46.309028	16.816639	16701	0	46.30833	16.80833	46.3088	16.8163	16630	46.3083	16.8083	16701	0
220	858	HR	5008	Draoe	Botooe	HR	0	0	31038	121.55	1991	2021	46.242361	16.939111	31122	0	46.24167	16.94167	46.2413	16.9387	30971	46.2417	16.9417	31122	0
221	859	HR	5098	Draoe	Nooe_oerje_Skela	HR	0	0	31803	108.86	2009	2021	46.110167	17.15275	31892	0	46.10833	17.15833	46.1104	17.1537	31750	46.1083	17.1583	31892	0
222	860	HR	5063	Draoe	Terezino_Polje	HR	0	0	33916	100.67	1991	2021	45.944528	17.461778	34238	0	45.94167	17.45833	45.9454	17.4621	33993	45.9417	17.4583	34238	0
223	864	HR	5005	Draoe	Belisce	HR	0	0	38500	83.99	2009	2021	45.688472	18.4185	38134	0	45.69167	18.425	45.6896	18.4196	38515	45.6917	18.425	38134	0
224	868	HR	5130	Danube	Dalj	HR	0	0	252208	75.2	2009	2021	45.491028	18.995028	252870	0	45.49167	18.99167	45.4896	18.9971	254038	45.4917	18.9917	252870	0
225	869	HR	5070	Danube	oekooer	HR	0	0	253147	76.19	2009	2021	45.355417	19.002056	254103	0	45.35833	19.00833	45.3571	19.0029	254161	45.375	18.975	252979	1
226	870	HR	5024	Danube	Ilok	HR	0	0	253737	73.97	2009	2021	45.230444	19.37825	254717	0	45.225	19.375	45.2321	19.3779	256409	45.225	19.3583	254657	1
227	886	DE	10078000	Danube	Pfelling	DE	0	0	37757	30816	2013	2021	48.8798	12.7472	37757	0	48.875	12.74167	48.8788	12.7471	37606	48.875	12.7417	37757	0
228	892	DE	11405000	Iller	Wiblingen	DE	0	0	2040	46824	1991	2021	48.3708	9.9874	2173	0	48.375	9.99167	48.3704	9.9871	2150	48.375	9.9917	2173	0
229	895	DE	12006000	Lech	Augsburg_u_d_Wertachmuendung	DE	0	0	3803	45678	1990	2021	48.4081	10.888	4003	0	48.40833	10.89167	48.4079	10.8887	3776	48.4083	10.8917	4003	0
230	900	DE	14008006	Naab	Heitzenhofen	DE	0	0	5432	33364	1991	2021	49.1183	11.9363	5418	0	49.125	11.94167	49.1179	11.9362	5417	49.125	11.9417	5418	0
231	903	DE	15207507	Regen	Marienthal	DE	0	0	2590	33700	2013	2021	49.223	12.1756	2605	0	49.225	12.175	49.2229	12.1754	2607	49.225	12.175	2605	0
232	904	DE	16005701	Isar	Muenchen	DE	0	0	2814	50036	2013	2021	48.1455	11.5969	2878	0	48.14167	11.59167	48.1454	11.5963	2858	48.125	11.575	2821	1
233	906	DE	16007004	Isar	Landshut_Birket	DE	0	0	7915	38865	2013	2021	48.5275	12.1332	7971	0	48.525	12.125	48.5288	12.1329	7962	48.525	12.1417	7998	1
234	1014	RS	47290	Ibar	Usce	RS	0	0	6883	329.89	2014	2021	43.465178	20.621409	6805	0	43.45833	20.625	43.4654	20.6204	6769	43.4583	20.6417	6765	1
235	1021	AT	5002427	Salzach	Salzburg-Nonntal	AT	0	0	4394	413.07	2013	2021	47.798051	13.053879	4418	0	47.79167	13.05833	47.7979	13.0538	4404	47.7917	13.0583	4418	0
236	1308	SI	2005	Draoe	Crnece	SI	0	0	12060	46.59	2011	2021	46.586993	15.018159	12080	0	46.59167	15.00833	46.5862	15.0179	12025	46.5917	15.0083	12080	0
237	1311	UA	44006	Tisza	Rahiv	UA	0	0	1070	429.73	2000	2021	48.061111	24.212222	1069	0	48.05833	24.20833	48.0613	24.2121	1057	48.0583	24.225	1057	1
238	1321	UA	44090	Latorica	Mukacheoe	UA	0	0	1360	115.6	2000	2021	48.443611	22.718056	1352	0	48.44167	22.725	48.4438	22.7171	1351	48.4417	22.725	1352	0
239	1322	UA	44093	Latorica	Chop	UA	0	0	2870	96.58	2000	2021	48.455	22.213611	3565	0	48.45833	22.20833	48.4521	22.2137	3261	48.4583	22.2083	3565	0
240	1324	UA	44113	Uzh	Zaricheoe	UA	0	0	1280	154.56	2000	2021	48.771111	22.501389	1283	0	48.775	22.49167	48.7713	22.5004	1283	48.775	22.4917	1283	0
241	1327	UA	42148	Prut	Chernioesi	UA	0	0	6890	155.89	1991	2021	48.311111	25.920556	6906	0	48.30833	25.925	48.3113	25.9204	6852	48.325	25.8917	6895	1
242	1328	UA	42187	Cheremosh	Usteriky	UA	0	0	1500	474.09	2000	2021	48.116389	25.011944	1512	0	48.10833	25.00833	48.1146	25.0104	1504	48.1083	25.0083	1512	0
243	1696	HR	5044	Mur	Mursko_Sredisce	HR	0	0	10891	156.29	2014	2021	46.514667	16.443556	10896	0	46.50833	16.44167	46.5154	16.4438	10845	46.5083	16.4417	10896	0
244	1697	HR	5035	Mur	Gorican	HR	0	0	13148	138.59	2014	2021	46.419556	16.693	13037	0	46.40833	16.70833	46.4196	16.6938	13004	46.425	16.6917	13035	1
245	1698	SI	4860	Kolpa	Metlika	SI	0	0	1966	126.96	2005	2021	45.63482	15.32294	1962	0	45.64167	15.325	45.6346	15.3229	2062	45.6417	15.325	1962	0
246	1708	UA	42804	Danube	Izmayil	UA	0	0	813000	-0.18	2016	2021	45.327926	28.832233	790372	0	45.325	28.825	45.3271	28.8313	795324	45.325	28.825	790372	0
247	1734	BA	Sanski Most	Sana	Sanski_Most	BA	0	0	2008	156.04	2006	2021	44.766389	16.666111	1420	0	44.75833	16.675	44.7662	16.6662	1680	44.7583	16.675	1420	0
248	1736	BA	Kozluk	oebas	Kozluk	BA	0	0	3161	342.51	2006	2021	44.34	17.273611	2083	0	44.34167	17.275	44.3396	17.2737	2052	44.3417	17.275	2083	0
249	1740	BA	Merdani	Lasoe	Merdani	BA	0	0	950	357.59	2006	2021	44.134722	17.9125	965	0	44.14167	17.90833	44.1346	17.9129	955	44.1417	17.9083	965	0
250	1976	DE	6342200	Iller	KEMPTEN	DE	0	0	955	-	1990	2009	47.73	10.31	947	0	47.725	10.325	47.7304	10.3171	952	47.725	10.325	947	0
251	2026	SK	6142551	Kysuca	KYSUCKE_NOoe_MESTO	SK	0	0	1037	-	1990	2002	49.29	18.78	967	0	49.29167	18.775	49.2888	18.7804	952	49.2917	18.775	966	0
252	2027	SK	6144300	Hornad	ZDANA	SK	0	0	4390	-	1990	2002	48.6	21.34	4248	0	48.60833	21.34167	48.5996	21.3379	4247	48.6083	21.3417	4248	0
253	2028	HU	6442100	Zala	ZALAAPATI	HU	0	0	1597	-	1990	1996	46.73	17.11	1530	0	46.725	17.125	46.7296	17.1212	1496	46.7417	17.125	1514	1
254	2029	BG	6842400	Danube	LOM	BG	0	0	585869	-	1992	2000	43.84	23.24	579998	0	43.84167	23.24167	43.8396	23.2413	584380	43.8417	23.225	578846	1
255	2030	UA	6942200	Siret	STOROZHYNETS	UA	0	0	842	-	1990	1996	48.16	25.71	676	0	48.15833	25.70833	48.1621	25.7104	663	48.1583	25.7083	676	0
256	2031	RO	42430	Tarnaoe_Mare	Tarnaoe_Mare_BLAJ	RO	0	0	3775	-	1990	2001	46.170901	23.920442	3693	0	46.175	23.925	46.1713	23.9204	3646	46.175	23.925	3693	0
257	2032	RO	44010	Strei	Strei_PETRENI	RO	0	0	1750	-	1990	2001	45.8	23.033333	1966	0	45.80833	23.025	45.8004	23.0262	1934	45.775	23.0083	1930	1
258	2034	RO	44524	Crisul_Repede	ORADEA	RO	0	0	6003	-	1991	2003	47.05	21.933333	2174	0	47.05833	21.925	47.0554	21.9329	2160	47.0583	21.925	2174	0
259	2036	BA	A1208	Dunav	Bajina Bata	BA	0	0	14000	-	1991	2003	43.98	19.55	14897	0	43.975	19.54167	43.979583	19.550417	14843	43.97500	19.54167	    14897	0
260	2141	AT	6242420	KREMS	IMBACH	AT	0	0	306	-	1990	2010	48.44	15.56	309	0	48.44167	15.55833	48.4438	15.5621	300	48.4417	15.5583	308	0
261	2209	HU	6442450	DANUBE_RIoeR	DUNAALMAS	HU	0	0	171720	-	1990	1996	47.73	18.33	171742	0	47.74167	18.325	47.7362	18.3296	171048	47.7417	18.3083	171598	1
262	2532	RO	6842200	DANUBE_RIoeR	NOoe_SELO	RO	0	0	584900	-	1992	2000	44.16	22.82	575537	0	44.15833	22.825	44.1537	22.8196	581127	44.1583	22.825	575537	0
263	2534	RO	6842800	DANUBE_RIoeR	RUSE	RO	0	0	669900	-	1992	2000	43.86	25.95	659920	0	43.85833	25.94167	43.8588	25.9521	665381	43.8583	25.9583	659925	1
264	2535	RO	6842900	DANUBE_RIoeR	SILISTRA	RO	0	0	689700	-	1992	2000	44.13	27.26	680795	0	44.125	27.25833	44.1246	27.2613	686677	44.125	27.2417	680770	1
265	2726	BG	17850	Skat	Miziya	BG	0	0	4523	-	1991	2004	43.685	23.8612	1064	0	43.69167	23.85833	43.685	23.853	1045	43.6917	23.8583	1064	0
266	2732	BG	22750	Osum	Looech	BG	0	0	5498	-	1991	2004	43.141667	24.722222	925	0	43.14167	24.725	43.1421	24.7204	919	43.1417	24.725	925	0
267	2744	BG	42017	Donau	BECHET	BG	0	0	599244	-	1991	2003	43.75	23.95	599244	0	43.74167	23.95833	43.7454	23.9504	604790	43.7417	23.9583	599244	0
268	2745	BG	42024	Donau	TURNU_MAGURELE	BG	0	0	639731	-	1991	2003	43.7	24.883333	639731	0	43.70833	24.89167	43.7079	24.8829	645185	43.7083	24.875	639713	1
269	2746	RO	42031	Dadilooet	OLTENITA	RO	0	0	676229	-	1991	2003	44.066667	26.66667	676229	0	44.05833	26.625	44.0671	26.6671	681466	44.075	26.675	676239	1
270	2747	RO	42051	Donau	BRAILA	RO	0	0	708285	-	1991	2003	45.283333	27.983333	708285	0	45.275	27.99167	45.2804	27.9896	713871	45.2917	27.9917	709087	1
271	2748	UA	42055	Donau	ISACCEA	UA	0	0	805700	-	1991	2003	45.283333	28.483333	785381	0	45.275	28.475	45.2796	28.4829	790480	45.275	28.475	785381	0
272	2818	sk	Hron	Hron	Hron	sk	0	0	5325	-	1991	2002	47.859835	18.657613	5421	0	47.84167	18.675	47.8663	18.6612	5149	47.875	18.6583	5171	1
273	2966	BA	Prijedor	Sana	Prijedor	BA	0	0	3191	-	2000	2011	44.97385	16.703856	2579	0	44.975	16.70833	44.9738	16.7037	2842	44.975	16.7083	2579	0
274	2969	HR	Brodarci	Kupa	Brodarci	HR	0	0	3405	-	2000	2011	45.544444	15.533889	2507	0	45.54167	15.54167	45.5429	15.5329	2627	45.5417	15.525	2505	1
275	2970	HR	Pleternica	Orljaoe	Pleternica	HR	0	0	745	-	2006	2011	45.361186	17.752702	732	0	45.325	17.775	45.3354	17.7504	717	45.325	17.7583	727	1
276	2971	SI	Litija I	Saoe	Litija_I	SI	0	0	4821	-	2000	2011	46.055556	14.823056	4182	0	46.05833	14.825	46.0562	14.8229	4879	46.0583	14.825	4182	0
277	2974	SI	Nazarje	Saoenja	Nazarje	SI	0	0	457	-	2000	2011	46.3212	14.9524	466	0	46.325	14.95833	46.3212	14.9521	457	46.325	14.9583	466	0
278	2975	BA	Daljan	oebas	Daljan	BA	0	0	1034	-	2006	2011	44.158531	17.39651	1042	0	44.14167	17.39167	44.1454	17.3913	1039	44.1417	17.3917	1042	0
279	2976	BA	Olovo	Krioeja	Olooe	BA	0	0	737	-	2006	2011	44.12575	18.57989	697	0	44.125	18.575	44.1254	18.5754	849	44.125	18.575	697	0
280	2977	RS	Cedovo	oepa	Cedooe	RS	0	0	501	-	2000	2011	43.303417	20.064127	540	0	43.29167	20.05833	43.2821	20.0637	529	43.275	20.0583	537	1
281	2978	RS	Lesnica	Jadar	Lesnica	RS	0	0	959	-	1990	2015	44.633056	19.279444	968	0	44.625	19.275	44.6304	19.2779	1002	44.6083	19.275	949	1
282	2979	RS	Valjevo	Kolubara	oeljeoe	RS	0	0	340	-	2000	2011	44.268889	19.892222	340	0	44.25833	19.875	44.2679	19.8921	339	44.275	19.875	343	1
283	2980	RS	Slovac	Kolubara	Slooec	RS	0	0	995	-	2000	2011	44.338333	20.085	999	0	44.34167	20.075	44.3396	20.0871	989	44.3417	20.075	999	0
284	2981	RS	Cemanov most	Tamnaoe	Cemanooemost	RS	0	0	385	-	2000	2011	44.480881	20.024614	314	0	44.475	20.025	44.4796	20.0246	309	44.475	20.0083	290	1
285	3021	RS	45836_Brodarevo	Lim	45836_Brodareoe_Lim	RS	0	0	2762	-	1990	2011	43.233145	19.720081	2660	0	43.225	19.725	43.2329	19.7196	2653	43.225	19.725	2660	0
286	3022	RS	45842_Priboj_Li	Lim	45842_Priboj_Lim	RS	0	0	3684	-	1990	2015	43.581616	19.523649	3521	0	43.575	19.525	43.5812	19.5237	3544	43.575	19.525	3521	0
287	3023	RS	45838_Prijepolj	Mileseoea	45838_Prijepolje_Mileseoea	RS	0	0	155	-	1990	2015	43.381675	19.636986	150	0	43.39167	19.65833	43.3904	19.6471	153	43.3917	19.6583	150	0
288	3024	RS	45890_Zavlaka_J	Jadar	45890_Zaoeaka_Jadar	RS	0	0	313	-	1991	2015	44.449612	19.49097	298	0	44.44167	19.50833	44.4496	19.4913	309	44.4417	19.5083	298	0
289	4192	SI	2250	Meza	Otiki_oeh_I	SI	0	0	553	334	2017	2021	46.57775	15.02594	550	0	46.575	15.025	46.5779	15.0262	551	46.575	15.025	550	0
290	4194	SI	2390	Mislinja	Otiki_oeh_I	SI	0	0	232	344.75	2017	2021	46.56751	15.03725	235	0	46.575	15.04167	46.5671	15.0371	232	46.5583	15.0417	232	1
291	4198	SI	2640	Draoenja	Makole	SI	0	0	303	240.22	2017	2021	46.31928	15.67041	323	0	46.325	15.675	46.3196	15.6704	300	46.325	15.675	323	0
292	4199	SI	2652	Draoenja	oedem	SI	0	0	767	209.04	2017	2021	46.36835	15.90297	870	0	46.375	15.90833	46.3679	15.9029	841	46.375	15.9083	870	0
293	4202	SI	2754	Polskaoe	Træec	SI	0	0	189	214.07	2017	2021	46.36367	15.87807	268	0	46.375	15.85833	46.3629	15.8763	256	46.375	15.8417	259	1
294	4205	SI	2900	Pesnica	Zamuani_I	SI	0	0	480	201.85	2017	2021	46.41413	16.03396	533	0	46.40833	16.04167	46.4146	16.0337	505	46.4083	16.0417	533	0
295	4216	SI	4200	Sora	Suha_I	SI	0	0	569	329.47	2017	2021	46.16203	14.32602	592	0	46.15833	14.325	46.1621	14.3262	568	46.1583	14.325	592	0
296	4218	SI	4230	Poljanska_Sora	Zminec	SI	0	0	307	343.33	2017	2021	46.15302	14.29013	322	0	46.15833	14.29167	46.1529	14.2904	308	46.1417	14.2917	318	1
297	4224	SI	4515	Raca	oer	SI	0	0	161	299.04	2017	2021	46.14401	14.61682	162	0	46.14167	14.625	46.1437	14.6171	163	46.1417	14.625	162	0
298	4229	SI	4695	Mirna	Jelooec	SI	0	0	271	208.49	2017	2021	45.98862	15.23025	392	0	45.99167	15.225	45.9879	15.2304	382	45.9917	15.225	392	0
299	4232	SI	4750	Sutla	Rakooec	SI	0	0	561	140.12	2017	2021	45.92091	15.70428	554	0	45.925	15.70833	45.9213	15.7054	564	45.9417	15.7083	546	1
300	4235	SI	4820	Kupa	Petrina	SI	0	0	467	219.31	2017	2021	45.46389	14.85176	413	0	45.45833	14.84167	45.4637	14.8521	530	45.4583	14.8417	412	0
301	4236	SI	4828	Kupa	Sodeoei	SI	0	0	1136	180.84	2017	2021	45.48469	15.07558	1127	0	45.49167	15.075	45.4846	15.0754	1232	45.4917	15.075	1127	0
302	4241	SI	5479	Gradascica	Bokalce	SI	0	0	155	296.63	2017	2021	46.04521	14.44644	155	0	46.04167	14.44167	46.0454	14.4454	156	46.0417	14.4417	155	0
303	4248	SI	6140	Saoenja	Celje_II_brv	SI	0	0	1192	230.31	2017	2021	46.22807	15.26002	1201	0	46.225	15.25833	46.2279	15.2604	1187	46.225	15.2583	1201	0
304	4252	SI	6550	Bolska	Dolenja_oes_II	SI	0	0	170	267.87	2017	2021	46.23922	15.09288	174	0	46.24167	15.09167	46.2396	15.0921	176	46.2417	15.075	171	1
305	4254	SI	6720	oeglajna	Celje_II	SI	0	0	203	234.23	2017	2021	46.23203	15.28322	205	0	46.225	15.29167	46.2321	15.2829	199	46.225	15.2917	205	0
306	4255	SI	6790	Hudinja	kofja_oes	SI	0	0	156	242.23	2017	2021	46.26469	15.2867	159	0	46.25833	15.29167	46.2646	15.2871	155	46.275	15.2917	154	1
307	4257	SI	7060	Krka	Soteska	SI	0	0	950	167.59	2017	2021	45.77941	15.0192	929	0	45.775	15.025	45.7788	15.0196	923	45.775	15.025	929	0
308	4258	SI	7110	Krka	Gorenja_Gomila	SI	0	0	1874	148.67	2017	2021	45.86751	15.28555	1415	0	45.875	15.29167	45.8679	15.2854	1444	45.875	15.2917	1415	0
309	5214	BA	45628	oebas	Banja_Luka	BA	0	0	4588	151.21	2016	2021	44.76468	17.18852	3484	0	44.75833	17.19167	44.7646	17.1887	3416	44.7583	17.175	3455	1
310	5216	BA	45745	Bosna	Doboj	BA	0	0	4588	137.01	2016	2021	44.74447222	18.095683	9655	0	44.75833	18.09167	44.744	18.096	6804	44.7417	18.0917	9647	1
311	5217	BA	45616	Plioe	Majeoec	BA	0	0	156	461.53	2015	2021	44.238878	17.024121	156	0	44.24167	17.025	44.2388	17.0237	131	44.2417	17.025	155	0
312	5218	BA	45620	Plioe	oelari	BA	0	0	1665	435.1	2015	2021	44.29215278	17.11525	577	0	44.29167	17.10833	44.2921	17.1154	556	44.2917	17.1083	577	0
313	5219	BA	45640	oebanja	oebanja	BA	0	0	778	166.22	2016	2021	44.74743529	17.272768	782	0	44.74167	17.25833	44.7471	17.2729	771	44.7417	17.275	772	1
314	5220	BA	45521	Una	Nooe_Grad_nizoedno	BA	0	0	8507	116.06	2003	2021	45.05355904	16.384199	7020	0	45.05833	16.39167	45.0538	16.3837	8485	45.0583	16.3917	7020	0
